,city,cloudiness,country,date,humidity,lat,lon,max temp,wind speed
1,Cabo San Lucas,5.0,MX,06-04-2019,60.0,22.89,-109.91,79.0,17.22
2,Sebinkarahisar,0.0,TR,06-04-2019,83.0,40.29,38.42,27.29,2.17
3,Sorong,8.0,ID,06-04-2019,100.0,-0.86,131.25,81.56,3.4
4,Portland,40.0,US,06-04-2019,71.0,45.52,-122.67,59.0,8.05
5,Kapaa,40.0,US,06-04-2019,51.0,22.08,-159.32,84.2,10.29
6,Pevek,0.0,RU,06-04-2019,93.0,69.7,170.27,11.99,6.2
7,Hobart,75.0,AU,06-04-2019,51.0,-42.88,147.33,64.0,17.22
8,Qaanaaq,80.0,GL,06-04-2019,87.0,77.48,-69.36,12.89,11.01
9,Byron Bay,0.0,AU,06-04-2019,57.0,-28.65,153.62,80.01,9.17
10,Buchanan,20.0,LR,06-04-2019,94.0,5.88,-10.05,78.8,7.99
11,Otofuke,20.0,JP,06-04-2019,53.0,43.02,143.2,39.2,3.36
12,Rikitea,24.0,PF,06-04-2019,100.0,-23.12,-134.97,78.14,12.8
13,Albany,20.0,US,06-04-2019,53.0,42.65,-73.75,53.6,8.05
14,Tasiilaq,92.0,GL,06-04-2019,63.0,65.61,-37.64,28.4,35.57
15,Puerto Carreno,20.0,CO,06-04-2019,44.0,6.19,-67.49,93.2,2.73
16,Hermanus,48.0,ZA,06-04-2019,87.0,-34.42,19.24,62.01,7.0
17,Auki,0.0,NG,06-04-2019,45.0,12.18,6.51,82.37,8.55
18,Klaksvik,36.0,FO,06-04-2019,97.0,62.23,-6.59,41.0,10.29
19,Abu Samrah,88.0,SY,06-04-2019,89.0,35.3,37.18,55.46,3.18
20,Atambua,0.0,ID,06-04-2019,100.0,-9.11,124.89,80.3,1.95
21,Lubsko,0.0,PL,06-04-2019,75.0,51.79,14.97,46.99,1.12
22,Cape Town,0.0,ZA,06-04-2019,72.0,-33.93,18.42,64.4,11.41
23,Esperance,20.0,TT,06-04-2019,74.0,10.24,-61.45,80.01,10.29
24,Longyearbyen,20.0,NO,06-04-2019,57.0,78.22,15.63,17.6,19.46
25,Ushuaia,90.0,AR,06-04-2019,86.0,-54.81,-68.31,37.4,4.7
26,Jamestown,0.0,AU,06-04-2019,47.0,-33.21,138.6,66.62,7.65
27,Punta Arenas,20.0,CL,06-04-2019,75.0,-53.16,-70.91,44.6,39.15
28,Caravelas,0.0,BR,06-04-2019,97.0,-17.73,-39.27,82.73,13.8
29,Chuy,92.0,UY,06-04-2019,87.0,-33.69,-53.46,63.56,5.19
30,Mabaruma,92.0,GY,06-04-2019,78.0,8.2,-59.78,79.49,10.11
31,Narsaq,36.0,GL,06-04-2019,80.0,60.91,-46.05,33.8,8.05
32,Busselton,8.0,AU,06-04-2019,100.0,-33.64,115.35,62.84,10.22
33,Belmonte,68.0,PT,06-04-2019,91.0,40.36,-7.35,43.0,7.0
34,Cidreira,100.0,BR,06-04-2019,96.0,-30.17,-50.22,69.41,7.76
35,Aklavik,75.0,CA,06-04-2019,52.0,68.22,-135.01,17.6,2.24
36,Touros,40.0,BR,06-04-2019,88.0,-5.2,-35.46,80.6,4.7
37,Victoria,75.0,BN,06-04-2019,88.0,5.28,115.24,82.4,4.7
38,Presidente Medici,8.0,BR,06-04-2019,85.0,-11.18,-61.9,70.13,3.96
39,Castro,90.0,CL,06-04-2019,100.0,-42.48,-73.76,55.4,11.41
40,Vaini,0.0,IN,06-04-2019,88.0,15.34,74.49,65.36,1.05
41,Hamilton,75.0,BM,06-04-2019,88.0,32.3,-64.78,68.0,8.05
42,Avarua,48.0,CK,06-04-2019,65.0,-21.21,-159.78,80.6,12.75
43,Butaritari,80.0,KI,06-04-2019,100.0,3.07,172.79,79.22,6.76
44,Fortuna,20.0,ES,06-04-2019,54.0,38.18,-1.13,55.4,8.05
45,Katsuura,75.0,JP,06-04-2019,66.0,33.93,134.5,60.01,4.7
46,Tuktoyaktuk,40.0,CA,06-04-2019,77.0,69.44,-133.03,5.0,13.87
47,Huinan,0.0,CN,06-04-2019,75.0,42.68,126.04,35.48,6.42
48,Dossor,36.0,KZ,06-04-2019,69.0,47.52,52.98,47.54,15.26
49,El Sauzal,0.0,AR,06-04-2019,72.0,-24.3,-64.96,64.4,3.36
50,Port Alfred,8.0,ZA,06-04-2019,90.0,-33.59,26.89,61.0,1.01
51,Kaitangata,0.0,NZ,06-04-2019,47.0,-46.28,169.85,57.99,1.99
52,Maceio,0.0,BR,06-04-2019,88.0,-9.67,-35.74,77.0,5.82
53,Sao Joao da Barra,20.0,BR,06-04-2019,78.0,-21.64,-41.05,80.6,4.7
54,Khatanga,88.0,RU,06-04-2019,94.0,71.98,102.47,16.58,10.33
55,Saskylakh,44.0,RU,06-04-2019,84.0,71.97,114.09,20.36,18.5
56,Puerto Ayora,20.0,EC,06-04-2019,74.0,-0.74,-90.35,82.4,13.87
57,Stanger,20.0,ZA,06-04-2019,93.0,-29.34,31.29,64.99,1.12
58,Barwadih,48.0,IN,06-04-2019,92.0,26.9,84.87,64.91,3.74
59,Leningradskiy,12.0,RU,06-04-2019,94.0,69.38,178.42,6.86,11.9
60,Acapulco,5.0,MX,06-04-2019,78.0,16.86,-99.88,82.4,11.41
61,Augusta,1.0,US,06-04-2019,65.0,44.31,-69.78,50.0,3.36
62,Ponta do Sol,24.0,BR,06-04-2019,90.0,-20.63,-46.0,67.16,3.18
63,Mehamn,76.0,NO,06-04-2019,88.0,71.03,27.85,28.46,12.24
64,Fort Nelson,90.0,CA,06-04-2019,74.0,58.81,-122.69,30.2,2.24
65,Saint-Philippe,1.0,CA,06-04-2019,86.0,45.36,-73.48,44.6,9.22
66,Dikson,80.0,RU,06-04-2019,100.0,73.51,80.55,14.96,3.4
67,Ayr,75.0,GB,06-04-2019,93.0,55.46,-4.63,46.4,5.82
68,Madingou,76.0,CG,06-04-2019,92.0,-4.17,13.56,76.25,2.39
69,Lebu,0.0,ET,06-04-2019,67.0,8.96,38.73,60.8,5.82
70,Bredasdorp,0.0,ZA,06-04-2019,82.0,-34.53,20.04,64.4,6.93
71,Kohlu,12.0,PK,06-04-2019,44.0,29.9,69.25,52.04,2.62
72,Barrow,0.0,AR,06-04-2019,45.0,-38.31,-60.23,64.46,12.01
73,Thompson,40.0,CA,06-04-2019,50.0,55.74,-97.86,32.0,5.82
74,Acari,92.0,BR,06-04-2019,92.0,-6.44,-36.64,72.02,5.3
75,Kushiro,40.0,JP,06-04-2019,52.0,43.11,144.15,42.8,9.17
76,Arraial do Cabo,12.0,BR,06-04-2019,90.0,-22.97,-42.02,80.39,4.74
77,Mujiayingzi,36.0,CN,06-04-2019,48.0,42.12,118.78,34.49,3.96
78,Rawson,0.0,AR,06-04-2019,35.0,-43.3,-65.11,71.03,9.66
79,Plettenberg Bay,0.0,ZA,06-04-2019,97.0,-34.05,23.37,62.48,11.23
80,Bluff,0.0,AU,06-04-2019,51.0,-23.58,149.07,79.04,10.33
81,Basco,1.0,US,06-04-2019,52.0,40.33,-91.2,69.8,11.41
82,Wilmington,1.0,US,06-04-2019,51.0,39.75,-75.55,64.4,3.36
83,Mahajanga,20.0,MG,06-04-2019,69.0,-15.72,46.32,82.4,4.7
84,Anchorage,90.0,US,06-04-2019,52.0,61.22,-149.89,48.99,8.05
85,Yellowknife,90.0,CA,06-04-2019,57.0,62.45,-114.38,21.2,14.99
86,Nanakuli,1.0,US,06-04-2019,58.0,21.39,-158.15,82.99,12.75
87,Saint Anthony,20.0,US,06-04-2019,46.0,43.97,-111.68,52.0,25.28
88,Adelaide,75.0,AU,06-04-2019,63.0,-34.93,138.6,69.01,19.46
89,Baracoa,92.0,CU,06-04-2019,96.0,20.35,-74.5,78.05,12.12
90,Mataura,0.0,NZ,06-04-2019,64.0,-46.19,168.86,57.0,1.01
91,Malanje,68.0,AO,06-04-2019,96.0,-9.54,16.35,66.8,2.17
92,Mar del Plata,0.0,AR,06-04-2019,35.0,-46.43,-67.52,61.94,11.79
93,Chokurdakh,68.0,RU,06-04-2019,100.0,70.62,147.9,18.02,6.08
94,Souillac,20.0,FR,06-04-2019,100.0,45.6,-0.6,45.0,3.36
95,Nizhnyaya Tavda,0.0,RU,06-04-2019,63.0,57.67,66.17,18.02,4.63
96,Pombas,80.0,BR,06-04-2019,82.0,-15.9,-54.74,72.02,7.54
97,Nikolskoye,0.0,RU,06-04-2019,87.0,59.7,30.79,36.0,4.47
98,Storsteinnes,76.0,NO,06-04-2019,80.0,69.24,19.23,30.2,12.75
99,Tautira,40.0,PF,06-04-2019,66.0,-17.73,-149.15,89.6,4.7
100,Rastolita,12.0,RO,06-04-2019,64.0,46.97,24.99,39.0,2.17
101,Georgetown,20.0,GY,06-04-2019,74.0,6.8,-58.16,80.6,11.41
102,Carnarvon,0.0,ZA,06-04-2019,76.0,-30.97,22.13,47.72,6.64
103,Yeniseysk,32.0,RU,06-04-2019,68.0,58.45,92.17,20.09,2.95
104,Yeppoon,0.0,AU,06-04-2019,61.0,-23.13,150.74,78.8,10.29
105,Ancud,90.0,CL,06-04-2019,100.0,-41.87,-73.83,55.4,11.41
106,Mana,0.0,RS,06-04-2019,70.0,43.52,20.24,48.2,4.7
107,Hami,80.0,CN,06-04-2019,54.0,42.84,93.51,52.58,1.72
108,Smirnykh,56.0,RU,06-04-2019,76.0,49.74,142.83,35.66,6.53
109,Umm Kaddadah,0.0,SD,06-04-2019,25.0,13.6,26.69,63.02,3.62
110,Amga,0.0,RU,06-04-2019,74.0,60.89,131.98,27.56,3.62
111,New Norfolk,75.0,AU,06-04-2019,51.0,-42.78,147.06,64.0,17.22
112,Saravan,90.0,AM,06-04-2019,93.0,39.72,45.65,46.4,2.24
113,Naze,20.0,NG,06-04-2019,92.0,5.43,7.07,75.08,3.18
114,Upernavik,0.0,GL,06-04-2019,74.0,72.79,-56.15,29.27,13.69
115,Yokadouma,80.0,CM,06-04-2019,97.0,3.52,15.05,68.69,2.95
116,Broome,24.0,GB,06-04-2019,93.0,52.47,1.45,46.99,3.36
117,East London,32.0,ZA,06-04-2019,100.0,-33.02,27.91,68.96,15.93
118,Araouane,0.0,ML,06-04-2019,22.0,18.9,-3.53,69.68,9.89
119,Port-Cartier,75.0,CA,06-04-2019,74.0,50.03,-66.88,34.0,2.24
120,Luanda,75.0,AO,06-04-2019,88.0,-8.83,13.24,82.4,4.7
121,Coahuayana,24.0,MX,06-04-2019,25.0,18.62,-100.35,83.72,3.4
122,Podgornoye,48.0,RU,06-04-2019,79.0,57.79,82.64,25.76,7.76
123,Luderitz,68.0,NA,06-04-2019,90.0,-26.65,15.16,57.26,9.55
124,Vestmannaeyjar,80.0,IS,06-04-2019,94.0,63.44,-20.27,37.73,15.03
125,Timra,92.0,SE,06-04-2019,100.0,62.49,17.33,37.4,1.12
126,Nanortalik,68.0,GL,06-04-2019,91.0,60.14,-45.24,32.06,17.27
127,Bethel,1.0,US,06-04-2019,48.0,60.79,-161.76,39.2,16.11
128,Saldanha,80.0,PT,06-04-2019,94.0,41.42,-6.55,38.9,6.98
129,Hithadhoo,0.0,MV,06-04-2019,100.0,-0.6,73.08,84.08,6.76
130,Airai,0.0,TL,06-04-2019,67.0,-8.93,125.41,76.88,1.95
131,Amarillo,1.0,US,06-04-2019,17.0,35.21,-101.83,78.8,13.87
132,Chapais,0.0,CA,06-04-2019,50.0,49.78,-74.86,28.4,10.29
133,Chauk,0.0,MM,06-04-2019,86.0,20.89,94.82,69.5,2.73
134,Atuona,20.0,PF,06-04-2019,99.0,-9.8,-139.03,83.09,13.02
135,Carutapera,92.0,BR,06-04-2019,96.0,-1.2,-46.02,77.24,6.64
136,La Asuncion,92.0,EC,06-04-2019,98.0,-1.64,-78.74,49.88,1.95
137,Nouadhibou,0.0,MR,06-04-2019,55.0,20.93,-17.03,66.2,23.04
138,Hilo,20.0,US,06-04-2019,58.0,19.71,-155.08,82.4,13.87
139,Lompoc,20.0,US,06-04-2019,68.0,34.64,-120.46,69.01,17.22
140,Vostok,12.0,RU,06-04-2019,84.0,46.45,135.83,31.79,2.51
141,Christchurch,92.0,NZ,06-04-2019,76.0,-43.53,172.64,55.0,14.99
142,Palana,0.0,RU,06-04-2019,69.0,59.08,159.95,31.97,3.85
143,Port Hardy,90.0,CA,06-04-2019,93.0,50.7,-127.42,44.6,5.82
144,Rockhampton,0.0,AU,06-04-2019,61.0,-23.38,150.51,78.8,10.29
145,Iqaluit,90.0,CA,06-04-2019,92.0,63.75,-68.52,19.4,2.24
146,Hasaki,75.0,JP,06-04-2019,77.0,35.73,140.83,61.0,8.05
147,Comodoro Rivadavia,0.0,AR,06-04-2019,64.0,-45.87,-67.48,65.72,15.48
148,Kalmar,12.0,SE,06-04-2019,81.0,56.66,16.36,35.01,4.7
149,Mahebourg,75.0,MU,06-04-2019,69.0,-20.41,57.7,80.6,11.41
150,Bud,56.0,NO,06-04-2019,69.0,62.91,6.91,41.0,9.17
151,San Quintin,8.0,PH,06-04-2019,79.0,17.54,120.52,78.86,3.62
152,Sao Filipe,0.0,CV,06-04-2019,94.0,14.9,-24.5,71.39,16.15
153,Warragul,0.0,AU,06-04-2019,89.0,-38.16,145.93,69.01,3.62
154,Muisne,40.0,EC,06-04-2019,83.0,0.61,-80.02,78.8,10.29
155,Te Anau,0.0,NZ,06-04-2019,50.0,-45.41,167.72,54.38,3.62
156,Akdepe,0.0,TM,06-04-2019,47.0,42.05,59.39,57.2,20.8
157,Tuatapere,0.0,NZ,06-04-2019,64.0,-46.13,167.69,57.0,1.01
158,Marsh Harbour,24.0,BS,06-04-2019,100.0,26.54,-77.06,75.98,10.22
159,Severo-Kurilsk,92.0,RU,06-04-2019,93.0,50.68,156.12,32.78,24.87
160,Luganville,92.0,VU,06-04-2019,100.0,-15.51,167.18,77.51,7.2
161,Albanel,75.0,CA,06-04-2019,93.0,48.88,-72.44,36.0,8.05
162,Pedernales,12.0,EC,06-04-2019,70.0,0.07,-80.05,76.16,9.66
163,Batemans Bay,0.0,AU,06-04-2019,61.0,-35.71,150.18,68.0,1.01
164,Fuyang,0.0,CN,06-04-2019,83.0,32.89,115.81,61.49,4.52
165,Kungurtug,64.0,RU,06-04-2019,84.0,50.6,97.53,19.64,3.18
166,Clyde River,36.0,CA,06-04-2019,92.0,70.47,-68.59,5.0,23.04
167,Trinidad,48.0,UY,06-04-2019,78.0,-33.52,-56.9,57.53,1.61
168,Turtas,0.0,RU,06-04-2019,90.0,58.94,69.13,20.72,3.85
169,Bharwari,0.0,IN,06-04-2019,72.0,25.56,81.49,74.54,10.11
170,Provideniya,36.0,RU,06-04-2019,100.0,64.42,-173.23,17.21,5.75
171,Yueyang,0.0,CN,06-04-2019,78.0,29.36,113.12,69.14,8.21
172,Jalu,20.0,LY,06-04-2019,58.0,29.03,21.55,62.03,7.99
173,Pljevlja,0.0,ME,06-04-2019,61.0,43.36,19.36,48.2,3.36
174,Juneau,90.0,US,06-04-2019,66.0,58.3,-134.42,48.2,3.36
175,Anadyr,0.0,RU,06-04-2019,78.0,64.73,177.51,8.6,15.66
176,Parrita,75.0,CR,06-04-2019,78.0,9.52,-84.33,73.4,8.05
177,Santa Vitoria,100.0,BR,06-04-2019,79.0,-7.82,-67.03,78.41,8.99
178,Port Lincoln,68.0,AU,06-04-2019,92.0,-34.72,135.86,64.19,15.26
179,Jinka,100.0,ET,06-04-2019,44.0,5.79,36.57,73.01,1.16
180,Santa Cruz del Sur,80.0,CU,06-04-2019,52.0,20.71,-78.0,83.45,9.78
181,Cherskiy,0.0,RU,06-04-2019,72.0,68.75,161.3,16.04,2.39
182,Nakapiripirit,0.0,UG,06-04-2019,66.0,1.81,34.71,66.71,5.41
183,Kavieng,92.0,PG,06-04-2019,100.0,-2.57,150.8,82.82,4.74
184,Warrnambool,0.0,AU,06-04-2019,74.0,-38.38,142.48,60.01,5.01
185,Erzin,75.0,TR,06-04-2019,82.0,36.95,36.2,61.0,2.95
186,Karaidel,0.0,RU,06-04-2019,76.0,55.83,56.91,24.14,2.51
187,Kenai,20.0,US,06-04-2019,60.0,60.55,-151.26,44.01,23.04
188,Constitucion,5.0,MX,06-04-2019,6.0,23.99,-104.67,77.0,18.34
189,Kavaratti,0.0,IN,06-04-2019,100.0,10.57,72.64,84.08,8.77
190,Khalkhal,8.0,IR,06-04-2019,81.0,37.62,48.53,37.1,2.95
191,Kodiak,1.0,US,06-04-2019,18.0,39.95,-94.76,73.4,9.17
192,Miraflores,76.0,CO,06-04-2019,100.0,5.2,-73.14,55.37,1.95
193,Nome,90.0,US,06-04-2019,94.0,30.04,-94.42,75.99,5.82
194,Kruisfontein,0.0,ZA,06-04-2019,82.0,-34.0,24.73,61.04,11.01
195,Ribeira Brava,20.0,PT,06-04-2019,63.0,32.65,-17.07,62.6,11.41
196,Maloy,20.0,ID,06-04-2019,80.0,1.0,118.1,80.39,2.73
197,Wattegama,12.0,LK,06-04-2019,94.0,7.35,80.68,67.97,2.39
198,Sitka,44.0,US,06-04-2019,63.0,37.17,-99.65,66.99,8.99
199,Ninghai,0.0,CN,06-04-2019,77.0,29.29,121.42,69.01,2.24
200,Kutum,0.0,SD,06-04-2019,30.0,14.2,24.66,59.24,6.31
201,Birjand,0.0,IR,06-04-2019,46.0,32.86,59.22,50.0,6.93
202,Port Elizabeth,1.0,US,06-04-2019,76.0,39.31,-74.98,64.4,5.82
203,Isfana,40.0,KG,06-04-2019,93.0,39.84,69.53,51.8,2.28
204,Mugur-Aksy,76.0,RU,06-04-2019,83.0,50.38,90.44,19.01,2.17
205,Tongliao,36.0,CN,06-04-2019,39.0,43.61,122.27,39.62,9.22
206,Samoded,0.0,RU,06-04-2019,83.0,63.61,40.52,23.42,3.62
207,Viedma,0.0,AR,06-04-2019,39.0,-40.81,-62.99,62.39,7.54
208,Waipawa,92.0,NZ,06-04-2019,75.0,-39.94,176.59,55.99,4.97
209,Qaqortoq,20.0,GL,06-04-2019,80.0,60.72,-46.03,33.8,8.05
210,Bathsheba,0.0,BB,06-04-2019,98.0,13.22,-59.52,78.86,19.84
211,Guerrero Negro,0.0,MX,06-04-2019,62.0,27.97,-114.04,67.88,15.26
212,Sorland,12.0,NO,06-04-2019,100.0,67.67,12.69,37.64,24.87
213,Aksu,0.0,KZ,06-04-2019,86.0,52.04,76.93,30.2,8.95
214,Sibolga,92.0,ID,06-04-2019,100.0,1.74,98.78,69.86,1.39
215,Mariel,40.0,CU,06-04-2019,88.0,22.99,-82.75,75.2,4.7
216,Rioja,44.0,PE,06-04-2019,93.0,-6.06,-77.17,66.89,2.28
217,Half Moon Bay,75.0,US,06-04-2019,52.0,37.46,-122.43,69.8,8.05
218,Emerald,0.0,AU,06-04-2019,69.0,-23.53,148.16,77.0,10.29
219,Ribeira Grande,68.0,PT,06-04-2019,100.0,38.52,-28.7,59.24,26.11
220,Ambilobe,0.0,MG,06-04-2019,83.0,-13.19,49.05,71.48,5.19
221,Ixtapa,5.0,MX,06-04-2019,65.0,20.71,-105.21,79.0,11.41
222,Rafsanjan,0.0,IR,06-04-2019,62.0,30.4,55.99,48.98,3.29
223,Arica,0.0,CL,06-04-2019,78.0,-18.48,-70.32,71.6,2.24
224,Ust-Ishim,0.0,RU,06-04-2019,78.0,57.69,71.17,17.66,3.62
225,Sambava,68.0,MG,06-04-2019,100.0,-14.27,50.17,80.39,15.7
226,Ulaangom,80.0,MN,06-04-2019,88.0,49.98,92.07,23.96,5.64
227,Ciudad Guayana,76.0,VE,06-04-2019,69.0,8.32,-62.69,81.47,10.45
228,Wanning,8.0,AT,06-04-2019,70.0,48.64,13.53,46.99,10.29
229,Gornopravdinsk,8.0,RU,06-04-2019,77.0,60.06,69.92,20.72,4.63
230,Kimbe,76.0,PG,06-04-2019,100.0,-5.56,150.15,81.02,3.96
231,Smithers,90.0,CA,06-04-2019,43.0,54.78,-127.17,51.8,8.05
232,Mayo,75.0,CA,06-04-2019,47.0,63.59,-135.9,33.8,11.41
233,Abu Dhabi,0.0,AE,06-04-2019,21.0,24.47,54.37,86.0,5.82
234,San Rafael,0.0,AR,06-04-2019,37.0,-34.61,-68.33,59.06,4.18
235,Savannah Bight,0.0,HN,06-04-2019,94.0,16.45,-85.85,81.02,21.74
236,Porto Novo,75.0,BR,06-04-2019,94.0,-23.68,-45.44,73.4,6.93
237,Vanimo,92.0,PG,06-04-2019,100.0,-2.67,141.3,79.22,5.97
238,King City,1.0,US,06-04-2019,59.0,36.21,-121.13,73.0,16.11
239,Zavodouspenskoye,0.0,RU,06-04-2019,69.0,56.86,65.02,33.8,6.71
240,Victoria Point,20.0,AU,06-04-2019,61.0,-27.58,153.3,82.0,11.41
241,Hobyo,24.0,SO,06-04-2019,85.0,5.35,48.53,79.49,7.99
242,Dalvik,56.0,SE,06-04-2019,61.0,57.79,14.13,48.2,5.82
243,Bull Savanna,56.0,JM,06-04-2019,58.0,17.89,-77.59,79.22,7.54
244,Matara,8.0,PE,06-04-2019,59.0,-13.74,-72.9,48.89,2.17
245,Lebork,0.0,PL,06-04-2019,73.0,54.54,17.75,41.0,1.12
246,Vinh,56.0,VN,06-04-2019,95.0,18.67,105.69,74.99,4.63
247,Micheweni,20.0,TZ,06-04-2019,100.0,-4.97,39.83,83.9,3.62
248,Yar-Sale,0.0,RU,06-04-2019,79.0,66.83,70.83,23.51,19.73
249,Pisco,0.0,PE,06-04-2019,30.0,-13.71,-76.2,71.6,12.75
250,Venice,75.0,US,06-04-2019,73.0,27.1,-82.45,81.0,1.39
251,Coquimbo,20.0,CL,06-04-2019,87.0,-29.95,-71.34,59.0,8.05
252,Den Helder,90.0,NL,06-04-2019,93.0,52.96,4.76,53.01,6.93
253,Garissa,0.0,KE,06-04-2019,70.0,-0.46,39.64,77.24,8.43
254,Igarka,76.0,RU,06-04-2019,91.0,67.47,86.57,18.74,6.42
255,Jiazi,20.0,CN,06-04-2019,94.0,19.61,110.49,75.2,4.47
256,Waverly,75.0,US,06-04-2019,77.0,37.04,-77.1,63.0,4.18
257,Okhotsk,24.0,RU,06-04-2019,70.0,59.36,143.24,39.53,4.41
258,Inuvik,75.0,CA,06-04-2019,52.0,68.36,-133.71,17.6,6.93
259,Iracoubo,92.0,GF,06-04-2019,94.0,5.48,-53.21,75.26,5.41
260,Tessalit,0.0,ML,06-04-2019,27.0,20.2,1.01,64.37,7.54
261,Kidal,0.0,ML,06-04-2019,21.0,18.44,1.41,74.0,8.66
262,La Ronge,90.0,CA,06-04-2019,51.0,55.1,-105.3,39.2,13.87
263,Rocha,88.0,UY,06-04-2019,76.0,-34.48,-54.34,59.78,4.74
264,Litovko,56.0,RU,06-04-2019,68.0,49.24,135.18,36.38,3.4
265,Campbell River,75.0,CA,06-04-2019,87.0,50.02,-125.24,48.2,11.41
266,Iwanai,8.0,JP,06-04-2019,86.0,42.97,140.51,41.33,10.89
267,Mackay,75.0,CA,06-04-2019,61.0,53.65,-115.58,46.4,13.87
268,Camacha,40.0,PT,06-04-2019,82.0,33.08,-16.33,62.6,14.99
269,Semnan,40.0,IR,06-04-2019,81.0,35.58,53.39,53.6,2.24
270,Mitsamiouli,12.0,KM,06-04-2019,98.0,-11.38,43.28,82.91,4.52
271,Altay,0.0,CN,06-04-2019,85.0,47.83,88.13,17.66,1.83
272,Savonlinna,0.0,FI,06-04-2019,92.0,61.87,28.88,27.0,2.62
273,Puerto Suarez,36.0,BO,06-04-2019,88.0,-18.96,-57.8,69.8,5.19
274,Jiuquan,32.0,CN,06-04-2019,64.0,39.73,98.49,34.49,1.61
275,Road Town,40.0,VG,06-04-2019,65.0,18.42,-64.62,78.8,11.41
276,Los Llanos de Aridane,20.0,ES,06-04-2019,72.0,28.66,-17.92,62.6,10.29
277,Dwarka,40.0,IN,06-04-2019,54.0,28.58,77.04,82.4,4.7
278,Koindu,8.0,LR,06-04-2019,74.0,8.2,-10.37,78.14,6.64
279,Tiksi,0.0,RU,06-04-2019,73.0,71.64,128.87,20.18,4.41
280,Glace Bay,75.0,CA,06-04-2019,93.0,46.2,-59.96,37.0,9.17
281,Vermillion,1.0,US,06-04-2019,49.0,42.78,-96.93,71.6,9.17
282,Taseyevo,56.0,RU,06-04-2019,73.0,57.22,94.9,23.51,2.39
283,Srednekolymsk,0.0,RU,06-04-2019,80.0,67.46,153.71,15.23,3.18
284,Alofi,92.0,NU,06-04-2019,79.0,-19.06,-169.92,86.0,9.17
285,Akom,44.0,GH,06-04-2019,72.0,6.86,-1.64,81.2,10.0
286,Dingle,20.0,PH,06-04-2019,95.0,11.0,122.67,79.04,8.43
287,Mbini,92.0,GQ,06-04-2019,100.0,1.58,9.62,79.85,6.76
288,Kaeo,8.0,NZ,06-04-2019,59.0,-35.1,173.78,66.99,13.0
289,Usinsk,0.0,RU,06-04-2019,82.0,66.0,57.56,21.44,10.45
290,Grindavik,0.0,IS,06-04-2019,74.0,63.84,-22.43,39.99,5.82
291,Cranbrook,75.0,CA,06-04-2019,42.0,49.51,-115.76,48.2,18.34
292,Norman Wells,40.0,CA,06-04-2019,63.0,65.28,-126.83,28.4,13.87
293,Pangnirtung,88.0,CA,06-04-2019,79.0,66.15,-65.72,19.28,4.74
294,Nichinan,75.0,JP,06-04-2019,55.0,31.65,131.31,64.4,3.36
295,Ilulissat,68.0,GL,06-04-2019,44.0,69.22,-51.1,39.2,32.21
296,Mandalgovi,56.0,MN,06-04-2019,99.0,45.76,106.27,24.14,8.77
297,Ust-Kuyga,0.0,RU,06-04-2019,90.0,70.0,135.55,19.82,4.29
298,Husavik,88.0,CA,06-04-2019,50.0,50.56,-96.99,46.0,3.0
299,Jieshi,36.0,CN,06-04-2019,92.0,22.82,115.83,73.1,6.08
300,Henties Bay,0.0,NA,06-04-2019,87.0,-22.12,14.28,60.01,5.01
301,Faanui,88.0,PF,06-04-2019,97.0,-16.48,-151.75,85.52,16.15
302,Kokrajhar,92.0,IN,06-04-2019,98.0,26.4,90.27,65.27,3.96
303,Nampula,12.0,MZ,06-04-2019,95.0,-15.12,39.26,67.07,3.51
304,Kirakira,92.0,SB,06-04-2019,98.0,-10.46,161.92,85.25,5.19
305,Salalah,40.0,OM,06-04-2019,78.0,17.01,54.1,78.8,4.7
306,Gao,36.0,ML,06-04-2019,23.0,16.28,-0.04,85.16,13.8
307,Lovozero,80.0,RU,06-04-2019,89.0,68.01,35.02,29.99,2.95
308,Edson,1.0,CA,06-04-2019,61.0,53.59,-116.44,46.4,4.7
309,Ibia,8.0,NG,06-04-2019,93.0,5.18,6.32,75.8,4.63
310,Sept-Iles,75.0,CA,06-04-2019,74.0,50.2,-66.38,34.0,2.24
311,Stege,0.0,DK,06-04-2019,80.0,54.99,12.28,45.0,4.7
312,Talnakh,76.0,RU,06-04-2019,88.0,69.49,88.39,16.58,11.34
313,Lorengau,32.0,PG,06-04-2019,94.0,-2.02,147.27,84.44,6.2
314,Madikeri,12.0,IN,06-04-2019,93.0,12.42,75.74,69.5,1.39
315,Jaisalmer,0.0,IN,06-04-2019,44.0,26.91,70.91,73.28,5.97
316,Santa Marta,75.0,CO,06-04-2019,55.0,11.24,-74.21,87.8,13.87
317,Northam,56.0,GB,06-04-2019,84.0,51.04,-4.21,48.0,8.99
318,Havoysund,68.0,NO,06-04-2019,86.0,71.0,24.66,28.4,18.34
319,Cockburn Town,92.0,TC,06-04-2019,98.0,21.46,-71.14,78.41,20.18
320,Celestun,56.0,MX,06-04-2019,92.0,20.87,-90.4,80.12,16.04
321,Karratha,0.0,AU,06-04-2019,27.0,-20.74,116.85,77.96,7.99
322,Oranjemund,92.0,ZA,06-04-2019,92.0,-28.55,16.43,60.59,7.54
323,Wailuku,40.0,US,06-04-2019,45.0,20.89,-156.51,84.2,9.17
324,Kiama,0.0,AU,06-04-2019,68.0,-34.67,150.86,73.99,9.17
325,Torbay,90.0,CA,06-04-2019,59.0,47.66,-52.73,35.01,13.87
326,Lavrentiya,24.0,RU,06-04-2019,100.0,65.58,-170.99,14.24,8.99
327,Grand Gaube,75.0,MU,06-04-2019,69.0,-20.01,57.66,80.6,11.41
328,Videira,92.0,BR,06-04-2019,98.0,-27.01,-51.15,63.47,2.95
329,Leua,56.0,AO,06-04-2019,93.0,-11.65,20.45,65.36,1.83
330,Irtyshskiy,24.0,RU,06-04-2019,78.0,58.33,68.13,21.71,6.42
331,Beyneu,88.0,KZ,06-04-2019,69.0,45.32,55.19,48.53,13.47
332,Port Hedland,0.0,AU,06-04-2019,53.0,-20.31,118.58,77.0,10.29
333,Ust-Charyshskaya Pristan,8.0,RU,06-04-2019,82.0,52.39,83.67,26.39,10.0
334,Sur,20.0,OM,06-04-2019,80.0,22.57,59.53,81.29,8.1
335,Sombrio,100.0,BR,06-04-2019,100.0,-29.11,-49.63,68.96,0.83
336,Marawi,64.0,PH,06-04-2019,85.0,8.0,124.29,79.0,4.0
337,Pontianak,20.0,ID,06-04-2019,94.0,-0.02,109.34,75.2,2.51
338,Siocon,20.0,PH,06-04-2019,94.0,11.03,124.04,81.74,7.65
339,Bambous Virieux,75.0,MU,06-04-2019,69.0,-20.34,57.76,80.6,11.41
340,Baldeogarh,0.0,IN,06-04-2019,83.0,24.81,78.97,65.18,4.74
341,Fairbanks,75.0,US,06-04-2019,44.0,64.84,-147.72,42.01,8.05
342,Fare,68.0,PF,06-04-2019,95.0,-16.7,-151.02,85.34,15.7
343,Lucelia,75.0,BR,06-04-2019,88.0,-21.72,-51.02,75.2,3.4
344,Montepuez,44.0,MZ,06-04-2019,91.0,-13.13,39.0,74.09,5.75
345,Popondetta,56.0,PG,06-04-2019,89.0,-8.77,148.24,74.81,1.39
346,Tutoia,92.0,BR,06-04-2019,100.0,-2.76,-42.27,73.64,1.16
347,Tilichiki,0.0,RU,06-04-2019,93.0,60.47,166.1,30.71,4.07
348,Gotsu,0.0,JP,06-04-2019,71.0,35.01,132.22,53.6,4.7
349,Sechura,12.0,PE,06-04-2019,73.0,-5.56,-80.82,76.52,9.22
350,Redlands,20.0,US,06-04-2019,52.0,34.06,-117.19,75.2,12.75
351,Vardo,1.0,US,06-04-2019,42.0,39.62,-77.74,66.2,1.83
352,Sao Jose da Coroa Grande,48.0,BR,06-04-2019,89.0,-8.9,-35.15,77.87,6.42
353,Oksfjord,80.0,NO,06-04-2019,86.0,70.24,22.35,28.99,18.34
354,Port Macquarie,0.0,AU,06-04-2019,64.0,-31.43,152.91,82.0,3.36
355,Ziarat,80.0,PK,06-04-2019,58.0,30.38,67.73,45.65,4.41
356,Uthal,0.0,PK,06-04-2019,80.0,25.81,66.62,65.54,1.39
357,Codrington,0.0,AU,06-04-2019,78.0,-28.95,153.24,75.99,5.82
358,Dubai,0.0,AE,06-04-2019,23.0,25.27,55.3,86.0,5.82
359,Taltal,0.0,CL,06-04-2019,77.0,-25.41,-70.49,57.71,0.94
360,Hugo,90.0,US,06-04-2019,93.0,45.16,-92.99,53.01,8.05
361,Tomatlan,20.0,MX,06-04-2019,55.0,19.93,-105.25,79.22,3.96
362,Vangaindrano,92.0,MG,06-04-2019,99.0,-23.35,47.6,69.95,2.51
363,Port Blair,0.0,IN,06-04-2019,100.0,11.67,92.75,83.18,4.18
364,Tete,80.0,MZ,06-04-2019,66.0,-16.16,33.59,80.21,11.68
365,Avera,90.0,US,06-04-2019,88.0,33.19,-82.53,69.01,3.4
366,Morgan City,1.0,US,06-04-2019,69.0,29.7,-91.21,79.0,8.05
367,Tura,92.0,IN,06-04-2019,94.0,25.52,90.21,65.09,5.75
368,Cape Canaveral,40.0,US,06-04-2019,74.0,28.41,-80.6,79.0,5.82
369,Passagem Franca,92.0,BR,06-04-2019,98.0,-6.18,-43.78,74.18,2.06
370,Zadar,0.0,HR,06-04-2019,87.0,44.12,15.24,51.01,3.36
371,Monte Escobedo,0.0,MX,06-04-2019,16.0,22.3,-103.58,71.66,5.41
372,Were Ilu,0.0,ET,06-04-2019,89.0,10.6,39.43,42.32,1.39
373,Puerto Ayacucho,20.0,CO,06-04-2019,44.0,5.66,-67.63,93.2,2.73
374,Abalak,56.0,NE,06-04-2019,33.0,15.46,6.28,79.31,4.07
375,Zhigansk,0.0,RU,06-04-2019,72.0,66.77,123.37,24.41,5.19
376,Goya,0.0,AR,06-04-2019,80.0,-29.14,-59.27,63.2,3.18
377,Tevaitoa,68.0,PF,06-04-2019,95.0,-16.78,-151.5,85.34,15.7
378,Tiarei,40.0,PF,06-04-2019,66.0,-17.53,-149.33,89.6,4.7
379,Sioux Lookout,40.0,CA,06-04-2019,36.0,50.1,-91.92,46.4,4.7
380,Macenta,32.0,GN,06-04-2019,80.0,8.55,-9.47,74.81,3.18
381,Leh,80.0,IN,06-04-2019,87.0,34.16,77.58,12.08,1.83
382,Jasper,76.0,US,06-04-2019,73.0,33.83,-87.28,75.2,4.29
383,Suluq,24.0,LY,06-04-2019,81.0,31.67,20.25,58.61,8.66
384,Napanee,75.0,CA,06-04-2019,70.0,44.25,-76.95,51.8,10.29
385,Malia,90.0,GR,06-04-2019,93.0,35.28,25.46,61.0,6.93
386,Ati,0.0,TD,06-04-2019,30.0,13.21,18.34,72.65,5.3
387,Saint George,75.0,GR,06-04-2019,87.0,39.45,22.34,53.6,2.17
388,Namibe,0.0,AO,06-04-2019,100.0,-15.19,12.15,78.14,6.98
389,South Daytona,20.0,US,06-04-2019,78.0,29.17,-81.0,80.6,8.05
390,Numan,0.0,NG,06-04-2019,61.0,9.46,12.04,84.71,10.67
391,Ahipara,12.0,NZ,06-04-2019,82.0,-35.17,173.16,65.72,11.01
392,Bandarbeyla,0.0,SO,06-04-2019,100.0,9.49,50.81,80.03,2.73
393,Bonthe,64.0,SL,06-04-2019,85.0,7.53,-12.5,81.56,4.63
394,Tansen,48.0,NP,06-04-2019,86.0,27.87,83.55,62.39,2.73
395,Lakatoro,92.0,VU,06-04-2019,98.0,-16.11,167.42,79.31,10.0
396,Lasa,20.0,CY,06-04-2019,82.0,34.92,32.53,59.0,4.7
397,Dillon,75.0,US,06-04-2019,34.0,45.22,-112.64,51.8,19.46
398,Poya,80.0,NC,06-04-2019,100.0,-21.35,165.16,75.62,13.8
399,Adrar,0.0,DZ,06-04-2019,32.0,27.87,-0.29,68.0,8.05
400,Elliot,32.0,ZA,06-04-2019,86.0,-31.33,27.85,41.15,2.39
401,Poum,0.0,MK,06-04-2019,91.0,41.28,20.71,34.31,1.95
402,Faya,0.0,SA,06-04-2019,59.0,18.39,42.45,62.6,11.41
403,Brenham,90.0,US,06-04-2019,54.0,30.17,-96.4,82.4,4.7
404,Collipulli,8.0,CL,06-04-2019,72.0,-37.96,-72.44,55.01,5.19
405,Saint-Raymond,75.0,CA,06-04-2019,70.0,46.89,-71.84,39.99,5.82
406,Ginir,0.0,ET,06-04-2019,78.0,7.14,40.71,53.3,2.62
407,Nikolayevsk-na-amure,80.0,RU,06-04-2019,93.0,53.14,140.72,26.84,12.91
408,Drayton Valley,0.0,CA,06-04-2019,72.0,53.22,-114.98,46.19,8.99
409,Punta de Piedra,0.0,VE,06-04-2019,49.0,7.62,-71.49,79.76,3.29
410,Athabasca,92.0,CA,06-04-2019,100.0,54.72,-113.29,36.56,7.76
411,Cobija,92.0,BR,06-04-2019,85.0,-11.02,-68.77,65.27,4.63
412,Akdagmadeni,36.0,TR,06-04-2019,75.0,39.66,35.88,34.04,3.29
413,Shestakovo,0.0,RU,06-04-2019,58.0,56.49,103.96,18.29,5.19
414,Herat,0.0,AF,06-04-2019,92.0,34.35,62.22,49.25,2.73
415,Bati,0.0,ET,06-04-2019,73.0,11.19,40.02,66.89,4.85
416,Peniche,40.0,PT,06-04-2019,76.0,39.36,-9.38,53.6,8.05
417,Upington,0.0,ZA,06-04-2019,48.0,-28.46,21.24,66.2,1.12
418,Honningsvag,68.0,NO,06-04-2019,100.0,70.98,25.97,29.99,11.68
419,Sistranda,75.0,NO,06-04-2019,75.0,63.73,8.83,41.0,13.87
420,Murgab,75.0,TM,06-04-2019,67.0,37.5,61.97,62.6,9.17
421,Purgstall,0.0,AT,06-04-2019,88.0,48.06,15.14,46.99,8.99
422,Onega,0.0,RU,06-04-2019,74.0,63.91,38.09,24.14,5.41
423,Omboue,76.0,GA,06-04-2019,100.0,-1.57,9.26,82.91,5.41
424,Sinnamary,100.0,GF,06-04-2019,100.0,5.38,-52.96,78.32,12.68
425,Ballina,24.0,IE,06-04-2019,85.0,54.11,-9.15,44.01,1.99
426,Mount Gambier,90.0,AU,06-04-2019,81.0,-37.83,140.78,53.6,13.87
427,Gouyave,20.0,GD,06-04-2019,74.0,12.16,-61.73,80.6,11.41
428,Gamba,76.0,CN,06-04-2019,75.0,28.28,88.52,10.73,2.84
429,Sa Kaeo,8.0,TH,06-04-2019,89.0,13.8,102.09,77.51,3.96
430,Samthar,0.0,IN,06-04-2019,82.0,25.84,78.91,66.62,1.16
431,Kiunga,92.0,PG,06-04-2019,98.0,-6.12,141.3,74.18,2.84
432,Novobirilyussy,24.0,RU,06-04-2019,69.0,56.95,90.69,21.17,7.87
433,Tabou,8.0,CI,06-04-2019,97.0,4.42,-7.36,84.35,13.58
434,Lagoa,40.0,PT,06-04-2019,76.0,37.14,-8.45,55.4,11.41
435,Xinzhi,40.0,TW,06-04-2019,83.0,22.54,120.62,78.01,4.7
436,Dargaville,20.0,NZ,06-04-2019,67.0,-35.94,173.86,64.28,15.03
437,Concordia,12.0,AR,06-04-2019,76.0,-31.4,-58.02,63.0,7.65
438,Sussex,90.0,CA,06-04-2019,100.0,45.72,-65.51,39.0,5.82
439,San Vicente,20.0,SV,06-04-2019,74.0,13.64,-88.78,82.4,6.93
440,Dhidhdhoo,0.0,MV,06-04-2019,100.0,6.88,73.1,83.54,3.62
441,Kebumen,88.0,ID,06-04-2019,100.0,-7.67,109.65,77.06,1.95
442,Benemerito de las Americas,8.0,MX,06-04-2019,38.0,16.52,-90.64,91.46,5.97
443,Tarakan,48.0,ID,06-04-2019,100.0,3.3,117.63,76.88,4.63
444,Tangwani,0.0,PK,06-04-2019,47.0,28.28,69.0,73.01,2.95
445,Xining,0.0,CN,06-04-2019,65.0,36.62,101.77,24.68,2.62
446,Basoko,20.0,CD,06-04-2019,95.0,1.23,23.61,74.18,2.62
447,Puerto Escondido,20.0,MX,06-04-2019,70.0,15.86,-97.07,84.2,16.11
448,Pitimbu,40.0,BR,06-04-2019,100.0,-7.47,-34.81,78.8,2.24
449,Samarai,92.0,PG,06-04-2019,100.0,-10.62,150.67,76.79,2.73
450,Dumas,0.0,IN,06-04-2019,96.0,21.09,72.71,81.38,8.77
451,Buenos Aires,0.0,AR,06-04-2019,56.0,-34.61,-58.44,68.0,9.17
452,La Plata,0.0,AR,06-04-2019,68.0,-34.92,-57.95,68.0,5.82
453,Kangaatsiaq,32.0,GL,06-04-2019,77.0,68.31,-53.46,34.22,24.2
454,Key West,90.0,US,06-04-2019,87.0,47.93,-96.78,46.4,6.93
455,Yumen,88.0,CN,06-04-2019,40.0,40.29,97.04,48.35,4.41
456,Ust-Tsilma,64.0,RU,06-04-2019,92.0,65.44,52.15,25.94,5.86
457,Nisia Floresta,40.0,BR,06-04-2019,78.0,-6.09,-35.21,82.4,5.82
458,Caorle,0.0,IT,06-04-2019,93.0,45.6,12.88,50.0,4.7
459,Anloga,20.0,GH,06-04-2019,83.0,5.79,0.9,84.2,11.41
460,Lerwick,8.0,GB,06-04-2019,75.0,60.15,-1.15,44.6,20.8
461,Anuchino,24.0,RU,06-04-2019,67.0,43.97,133.06,36.02,4.97
462,Oistins,40.0,BB,06-04-2019,69.0,13.07,-59.53,78.8,21.92
463,Havre-Saint-Pierre,40.0,CA,06-04-2019,86.0,50.23,-63.6,30.2,13.87
464,Fuzhou,44.0,CN,06-04-2019,100.0,26.08,119.3,64.4,3.18
465,Meulaboh,44.0,ID,06-04-2019,100.0,4.14,96.13,77.69,7.54
466,Gusev,8.0,RU,06-04-2019,61.0,54.59,22.2,39.08,10.67
467,Flinders,0.0,AU,06-04-2019,68.0,-34.58,150.85,75.0,9.17
468,Ewa Beach,1.0,US,06-04-2019,58.0,21.32,-158.01,82.99,12.75
469,Bara,8.0,NG,06-04-2019,47.0,10.41,10.6,86.33,14.25
470,Itoman,20.0,JP,06-04-2019,83.0,26.12,127.67,75.2,8.05
471,Turukhansk,80.0,RU,06-04-2019,88.0,65.8,87.96,19.28,15.26
472,Khor,0.0,RU,06-04-2019,66.0,47.88,134.96,37.91,5.86
473,Kahului,40.0,US,06-04-2019,45.0,20.89,-156.47,84.2,9.17
474,Salinopolis,76.0,BR,06-04-2019,100.0,-0.61,-47.36,79.58,10.45
475,Tres Arroyos,0.0,AR,06-04-2019,45.0,-38.38,-60.28,64.46,12.01
476,Penugonda,0.0,IN,06-04-2019,90.0,16.65,81.74,71.39,1.83
477,Bjornevatn,90.0,NO,06-04-2019,86.0,69.67,29.98,30.2,11.41
478,Gebre Guracha,36.0,ET,06-04-2019,90.0,9.8,38.4,49.16,1.72
479,Outlook,8.0,CA,06-04-2019,71.0,51.48,-107.04,50.0,8.01
480,Petropavlovskaya,0.0,RU,06-04-2019,69.0,45.08,40.45,47.27,10.78
481,Rio Gallegos,20.0,AR,06-04-2019,53.0,-51.62,-69.22,50.0,21.92
482,Geraldton,75.0,CA,06-04-2019,55.0,49.72,-86.95,39.2,4.7
483,Corumba,0.0,BR,06-04-2019,88.0,-19.0,-57.65,69.8,1.12
484,Ibra,20.0,OM,06-04-2019,54.0,22.69,58.55,61.76,1.16
485,Vysokogornyy,88.0,RU,06-04-2019,75.0,50.1,139.13,28.64,3.85
486,Padang,40.0,ID,06-04-2019,94.0,-0.92,100.36,75.2,1.12
487,Susanville,75.0,US,06-04-2019,53.0,40.42,-120.65,51.8,6.93
488,Isangel,0.0,VU,06-04-2019,100.0,-19.55,169.27,77.6,13.58
489,Nuuk,48.0,GL,06-04-2019,51.0,64.17,-51.74,39.2,14.99
490,Krasnokholm,76.0,RU,06-04-2019,77.0,51.6,54.16,44.66,11.45
491,Banda Aceh,56.0,ID,06-04-2019,94.0,5.56,95.32,76.34,2.06
492,Ayna,40.0,ES,06-04-2019,80.0,38.55,-2.07,41.0,14.99
493,Camopi,76.0,GF,06-04-2019,70.0,3.17,-52.33,80.12,4.74
494,Mizdah,12.0,LY,06-04-2019,61.0,31.45,12.98,56.45,3.06
495,Casablanca,40.0,MA,06-04-2019,87.0,33.6,-7.62,57.0,8.05
496,Mbandaka,48.0,CD,06-04-2019,95.0,0.05,18.26,75.71,2.17
497,Sarkand,12.0,KZ,06-04-2019,83.0,45.41,79.91,39.44,6.2
498,Walvis Bay,0.0,NA,06-04-2019,87.0,-22.95,14.51,60.01,9.17
499,Saint-Francois,0.0,FR,06-04-2019,66.0,46.42,3.91,50.0,6.93
500,Margate,75.0,AU,06-04-2019,51.0,-43.03,147.26,64.0,17.22
501,Anito,20.0,PH,06-04-2019,98.0,12.45,125.29,80.75,10.11
502,Port-Gentil,20.0,GA,06-04-2019,83.0,-0.72,8.78,82.4,6.93
503,Boguchany,56.0,RU,06-04-2019,75.0,58.38,97.46,22.79,2.73
504,Matagami,0.0,NG,06-04-2019,82.0,9.67,8.4,71.21,4.18
505,Aubenas,90.0,FR,06-04-2019,75.0,44.62,4.39,46.99,5.82
506,Ambulu,68.0,ID,06-04-2019,100.0,-8.35,113.61,78.23,2.73
507,Poronaysk,76.0,RU,06-04-2019,72.0,49.22,143.1,35.66,7.2
508,Miles City,20.0,US,06-04-2019,30.0,46.41,-105.84,68.0,16.11
509,Ukiah,75.0,US,06-04-2019,82.0,39.15,-123.21,60.01,10.29
510,Loandjili,75.0,CG,06-04-2019,94.0,-4.77,11.87,80.6,5.82
511,Camocim,92.0,BR,06-04-2019,100.0,-2.9,-40.84,72.92,12.24
512,Khandyga,0.0,RU,06-04-2019,66.0,62.65,135.58,30.71,3.4
513,Ola,0.0,RU,06-04-2019,83.0,59.58,151.3,35.66,13.47
514,Cairns,75.0,AU,06-04-2019,83.0,-16.92,145.77,81.0,9.17
515,Amapa,8.0,HN,06-04-2019,48.0,15.09,-87.97,80.57,2.17
516,Nelson Bay,0.0,AU,06-04-2019,69.0,-32.72,152.14,79.0,4.7
517,Atar,8.0,MR,06-04-2019,37.0,20.52,-13.05,59.51,6.76
518,Mayskiy,8.0,RU,06-04-2019,81.0,43.63,44.06,42.8,4.47
519,Fougamou,64.0,GA,06-04-2019,98.0,-1.22,10.59,71.93,2.62
520,Nantucket,1.0,US,06-04-2019,81.0,41.28,-70.1,54.0,6.93
521,Goderich,0.0,CA,06-04-2019,79.0,43.74,-81.71,50.0,1.01
522,Slave Lake,90.0,CA,06-04-2019,100.0,55.28,-114.77,35.6,4.7
523,Cururupu,92.0,BR,06-04-2019,100.0,-1.82,-44.87,73.64,3.4
524,Thasos,92.0,GR,06-04-2019,98.0,40.78,24.71,55.99,4.07
525,Fuling,0.0,CN,06-04-2019,64.0,29.71,107.39,58.34,2.51
526,Flin Flon,75.0,CA,06-04-2019,40.0,54.77,-101.88,37.4,9.17
527,Mikulov,0.0,CZ,06-04-2019,81.0,48.81,16.64,46.99,3.36
528,Luau,32.0,CD,06-04-2019,85.0,-10.7,22.23,70.67,3.74
529,Senneterre,75.0,CA,06-04-2019,65.0,48.39,-77.24,33.8,3.36
530,Itarema,100.0,BR,06-04-2019,100.0,-2.92,-39.92,71.21,9.66
531,Skalat,44.0,UA,06-04-2019,63.0,49.42,25.98,44.84,17.72
532,Bulungu,64.0,CD,06-04-2019,92.0,-4.54,18.6,74.99,3.74
533,Weligama,0.0,LK,06-04-2019,100.0,5.97,80.42,77.87,4.63
534,Quatre Cocos,75.0,MU,06-04-2019,69.0,-20.21,57.76,80.6,11.41
535,Haines Junction,0.0,CA,06-04-2019,71.0,60.75,-137.51,36.83,2.73
536,Awbari,0.0,LY,06-04-2019,47.0,26.59,12.77,60.41,4.07
537,Misratah,0.0,LY,06-04-2019,98.0,32.38,15.09,57.08,11.01
538,Beni Suef,44.0,EG,06-04-2019,57.0,29.07,31.1,66.08,6.76
539,Plock,0.0,PL,06-04-2019,65.0,52.55,19.71,48.0,10.29
540,Concepcion del Oro,0.0,MX,06-04-2019,16.0,24.63,-101.42,72.02,6.08
541,Craig,1.0,US,06-04-2019,72.0,40.52,-107.55,53.6,4.41
542,Traralgon,0.0,AU,06-04-2019,57.0,-38.19,146.54,64.99,5.99
543,Fenoarivo,75.0,MG,06-04-2019,82.0,-18.93,47.44,66.2,6.93
544,Trairi,100.0,BR,06-04-2019,100.0,-3.28,-39.27,78.95,10.78
545,Paoua,20.0,CF,06-04-2019,51.0,7.24,16.43,79.04,9.22
546,Ponta Delgada,40.0,PT,06-04-2019,87.0,37.73,-25.67,60.8,20.8
547,Portel,75.0,PT,06-04-2019,93.0,38.31,-7.71,46.4,8.05
548,Salta,20.0,AR,06-04-2019,67.0,-24.79,-65.41,64.4,4.7
549,Halifax,90.0,CA,06-04-2019,100.0,44.65,-63.58,41.0,9.17
550,Ibiruba,80.0,BR,06-04-2019,90.0,-28.63,-53.09,64.19,6.42
551,Doha,0.0,QA,06-04-2019,61.0,25.29,51.53,80.6,4.7
552,Warrington,0.0,GB,06-04-2019,76.0,53.39,-2.59,48.2,6.93
553,Orlik,64.0,RU,06-04-2019,63.0,52.51,99.83,6.32,1.95
554,Patzcuaro,75.0,MX,06-04-2019,36.0,19.52,-101.6,75.2,9.17
555,Alibag,0.0,IN,06-04-2019,78.0,18.64,72.88,80.6,7.43
556,Laem Sing,68.0,TH,06-04-2019,91.0,12.48,102.07,87.01,3.29
557,Dagua,40.0,CO,06-04-2019,78.0,3.66,-76.69,77.0,5.82
